time,.header.seq,.header.stamp.secs,.header.stamp.nsecs,.header.frame_id,.pose.position.x,.pose.position.y,.pose.position.z,.pose.orientation.x,.pose.orientation.y,.pose.orientation.z,.pose.orientation.w
2021/01/19/22:13:01.877689,134,1611074581,877236331,world,-0.439487248659,-0.564341783524,0.703801333904,-0.0355229265988,0.0452998504043,0.997757792473,-0.0341397225857
2021/01/19/22:13:01.897730,135,1611074581,897257887,world,-0.439520508051,-0.564316272736,0.703793764114,-0.0354040600359,0.0452307015657,0.997767329216,-0.0340760610998
2021/01/19/22:13:01.907678,136,1611074581,907272164,world,-0.439497113228,-0.564345121384,0.703816831112,-0.0355235785246,0.0453426502645,0.997756659985,-0.0341139920056
2021/01/19/22:13:01.927726,137,1611074581,927254794,world,-0.439498662949,-0.564323961735,0.703781604767,-0.0355333648622,0.0453032962978,0.997757315636,-0.0341401137412
2021/01/19/22:13:01.947639,138,1611074581,947251664,world,-0.439506113529,-0.564351201057,0.703815042973,-0.0355403907597,0.0453276075423,0.997755944729,-0.0341404825449
2021/01/19/22:13:01.957785,139,1611074581,957275850,world,-0.439507007599,-0.564339578152,0.703798890114,-0.0355500131845,0.0453241169453,0.997756540775,-0.0341169536114
2021/01/19/22:13:01.977787,140,1611074581,977248127,world,-0.439491093159,-0.564331293106,0.703804135323,-0.0355299673975,0.0453157201409,0.997758209705,-0.034098803997
2021/01/19/22:13:01.997796,141,1611074581,997252775,world,-0.439507573843,-0.564337909222,0.703806579113,-0.035515204072,0.0452932678163,0.997758924961,-0.034123826772
2021/01/19/22:13:02.007640,142,1611074582,7275238,world,-0.439508169889,-0.564346194267,0.703816413879,-0.03550452739,0.045340705663,0.997756361961,-0.0341471023858
2021/01/19/22:13:02.027641,143,1611074582,27245016,world,-0.439501494169,-0.564345002174,0.703792750835,-0.0354702807963,0.0453191325068,0.997757852077,-0.0341672189534
2021/01/19/22:13:02.047693,144,1611074582,47250664,world,-0.43951356411,-0.564336240292,0.703818619251,-0.035496134311,0.0452561825514,0.997761130333,-0.0341262184083
2021/01/19/22:13:02.057765,145,1611074582,57282479,world,-0.439487934113,-0.564341723919,0.703800976276,-0.0355796143413,0.0453743226826,0.997751295567,-0.0341716371477
2021/01/19/22:13:02.077595,146,1611074582,77219349,world,-0.439505517483,-0.564325749874,0.703797578812,-0.0354422368109,0.0452787280083,0.997762143612,-0.0341253653169
2021/01/19/22:13:02.097704,147,1611074582,97256275,world,-0.43949919939,-0.564339101315,0.703812539577,-0.0355114527047,0.0453234389424,0.997756659985,-0.0341555699706
2021/01/19/22:13:02.107676,148,1611074582,107297424,world,-0.439499139786,-0.564334869385,0.703795492649,-0.0355320312083,0.0452753230929,0.997758209705,-0.034149132669
2021/01/19/22:13:02.127762,149,1611074582,127244701,world,-0.439496666193,-0.564342677593,0.70380872488,-0.0355270914733,0.0452827550471,0.997757792473,-0.0341575555503
2021/01/19/22:13:02.147728,150,1611074582,147253424,world,-0.439502209425,-0.56433993578,0.703805148602,-0.0355664789677,0.0452528446913,0.997759342194,-0.0341126695275
2021/01/19/22:13:02.157740,151,1611074582,157281461,world,-0.439511805773,-0.564325928688,0.703793048859,-0.0354530960321,0.0451967455447,0.997765898705,-0.0341126546264
2021/01/19/22:13:02.177599,152,1611074582,177226664,world,-0.439493060112,-0.564344406128,0.703812241554,-0.0355548076332,0.0453319698572,0.997756302357,-0.0341081656516
2021/01/19/22:13:02.197664,153,1611074582,197254683,world,-0.439502567053,-0.564327895641,0.703788816929,-0.0355076566339,0.045238930732,0.997761726379,-0.0341203510761
2021/01/19/22:13:02.207668,154,1611074582,207259961,world,-0.439495205879,-0.564353406429,0.703812301159,-0.0355802550912,0.0453310571611,0.99775415659,-0.0341454558074
2021/01/19/22:13:02.227821,155,1611074582,227252442,world,-0.439507812262,-0.56433647871,0.703803539276,-0.0355743095279,0.0453278049827,0.997754395008,-0.0341477096081
2021/01/19/22:13:02.247651,156,1611074582,247252183,world,-0.439504474401,-0.564348161221,0.703810572624,-0.0355542972684,0.0453574247658,0.997753560543,-0.0341525860131
2021/01/19/22:13:02.257711,157,1611074582,257286553,world,-0.439493715763,-0.564322710037,0.703799307346,-0.0355746336281,0.0453012436628,0.997756659985,-0.0341174639761
2021/01/19/22:13:02.277773,158,1611074582,277250312,world,-0.439496576786,-0.564334154129,0.703806579113,-0.035581137985,0.045271076262,0.997757196426,-0.0341352187097
2021/01/19/22:13:02.297704,159,1611074582,297254479,world,-0.439496904612,-0.564333260059,0.703791618347,-0.0355035737157,0.0452667661011,0.997760474682,-0.0341256335378
2021/01/19/22:13:02.307664,160,1611074582,307260460,world,-0.439511358738,-0.564346194267,0.703805029392,-0.0355152115226,0.0452881231904,0.997758626938,-0.0341390371323
2021/01/19/22:13:02.327678,161,1611074582,327247479,world,-0.439495384693,-0.564339518547,0.703801572323,-0.0355625413358,0.0453615747392,0.99775415659,-0.0341219268739
2021/01/19/22:13:02.347646,162,1611074582,347252609,world,-0.439527362585,-0.564328849316,0.703789114952,-0.0354143492877,0.0452256016433,0.997767031193,-0.0340799130499
2021/01/19/22:13:02.357697,163,1611074582,357282757,world,-0.439497321844,-0.564345121384,0.70381373167,-0.0355250760913,0.0453439839184,0.997755467892,-0.0341469794512
2021/01/19/22:13:02.377691,164,1611074582,377252201,world,-0.439505666494,-0.564323067665,0.703787088394,-0.0354688800871,0.045269086957,0.997761487961,-0.0341282226145
2021/01/19/22:13:02.397688,165,1611074582,397252534,world,-0.439504534006,-0.564345180988,0.70381629467,-0.0355656594038,0.0453755483031,0.99775236845,-0.0341535583138
2021/01/19/22:13:02.407699,166,1611074582,407289312,world,-0.439507126808,-0.564340531826,0.703790009022,-0.0354989208281,0.045290324837,0.997758567333,-0.0341536104679
2021/01/19/22:13:02.427781,167,1611074582,427253534,world,-0.439507514238,-0.564341425896,0.703814148903,-0.035515408963,0.0453146547079,0.99775749445,-0.0341376215219
2021/01/19/22:13:02.447696,168,1611074582,447249757,world,-0.439499408007,-0.564330220222,0.703798115253,-0.0355104245245,0.0452992469072,0.997759342194,-0.0341094955802
2021/01/19/22:13:02.457810,169,1611074582,457326571,world,-0.4395006001,-0.564334988594,0.703804254532,-0.0355098210275,0.0452822111547,0.997758924961,-0.0341446809471
2021/01/19/22:13:02.477572,170,1611074582,477225720,world,-0.439485937357,-0.564339697361,0.703790545464,-0.0355242267251,0.0452700182796,0.997759640217,-0.0341245494783
2021/01/19/22:13:02.497714,171,1611074582,497260275,world,-0.439529508352,-0.564331710339,0.703798830509,-0.0354081988335,0.0451936125755,0.997768700123,-0.0340810976923
2021/01/19/22:13:02.507675,172,1611074582,507266516,world,-0.439496129751,-0.564346551895,0.703809857368,-0.0355133935809,0.0453218519688,0.997757077217,-0.0341425016522
2021/01/19/22:13:02.527677,173,1611074582,527243812,world,-0.439511120319,-0.564330935478,0.703795909882,-0.0355704165995,0.0453115738928,0.997756004333,-0.0341264605522
2021/01/19/22:13:02.547664,174,1611074582,547246812,world,-0.439497888088,-0.56433647871,0.703814446926,-0.0355263724923,0.0453357063234,0.997755765915,-0.034147631377
2021/01/19/22:13:02.557733,175,1611074582,557282812,world,-0.43949341774,-0.56432980299,0.703796386719,-0.0355817712843,0.0453174188733,0.997754752636,-0.0341448746622
2021/01/19/22:13:02.577585,176,1611074582,577219294,world,-0.439499139786,-0.564330935478,0.703804969788,-0.0354885868728,0.0452906265855,0.997759878635,-0.0341280885041
2021/01/19/22:13:02.597664,177,1611074582,597253701,world,-0.439506590366,-0.564343214035,0.70380884409,-0.0354758650064,0.0453116856515,0.997759401798,-0.0341262891889
2021/01/19/22:13:02.607692,178,1611074582,607280886,world,-0.439501345158,-0.564335584641,0.703804314137,-0.0355230011046,0.0452836565673,0.997759103775,-0.0341217629611
2021/01/19/22:13:02.627662,179,1611074582,627252812,world,-0.439492672682,-0.564332067966,0.703799426556,-0.0355064570904,0.0452510491014,0.997760653496,-0.0341374315321
2021/01/19/22:13:02.647680,180,1611074582,647248627,world,-0.439509660006,-0.564326643944,0.703803896904,-0.03550568223,0.0452452786267,0.99776083231,-0.0341425649822
2021/01/19/22:13:02.657717,181,1611074582,657279164,world,-0.439486116171,-0.564338624477,0.703805923462,-0.0354977436364,0.0453119687736,0.997758328915,-0.0341354720294
2021/01/19/22:13:02.677670,182,1611074582,677223664,world,-0.43952408433,-0.564322054386,0.703789293766,-0.0354140922427,0.0452331788838,0.997766852379,-0.0340771153569
2021/01/19/22:13:02.697693,183,1611074582,697254201,world,-0.439509034157,-0.56435328722,0.70380961895,-0.0355179607868,0.0453762561083,0.997753798962,-0.0341615229845
2021/01/19/22:13:02.707814,184,1611074582,707295257,world,-0.439496934414,-0.564331233501,0.703799188137,-0.0355202443898,0.0452796667814,0.997758865356,-0.0341365858912
2021/01/19/22:13:02.727730,185,1611074582,727249719,world,-0.439503580332,-0.564331889153,0.703815758228,-0.0355235412717,0.0452629104257,0.997760176659,-0.0341172628105
2021/01/19/22:13:02.747656,186,1611074582,747246831,world,-0.439506649971,-0.564338982105,0.703811883926,-0.035552803427,0.0453030355275,0.997756481171,-0.0341413579881
2021/01/19/22:13:02.757711,187,1611074582,757286849,world,-0.439513206482,-0.564340770245,0.703813433647,-0.0355448797345,0.0453041605651,0.99775826931,-0.0340969115496
2021/01/19/22:13:02.777684,188,1611074582,777259756,world,-0.439484000206,-0.564307332039,0.703829288483,-0.0355168320239,0.045129340142,0.997769117355,-0.0340400151908
2021/01/19/22:13:02.797679,189,1611074582,797250886,world,-0.439513653517,-0.564189553261,0.703844189644,-0.0352849476039,0.0451469123363,0.997786819935,-0.0337391234934
2021/01/19/22:13:02.807784,190,1611074582,807264849,world,-0.439482569695,-0.563877403736,0.703944087029,-0.0343139283359,0.0446634665132,0.99787157774,-0.0328642688692
2021/01/19/22:13:02.827671,191,1611074582,827245719,world,-0.439636617899,-0.563399553299,0.704057216644,-0.0334538444877,0.0440769828856,0.997957825661,-0.0319101847708
2021/01/19/22:13:02.847659,192,1611074582,847250349,world,-0.440030366182,-0.562792301178,0.70413339138,-0.0334732346237,0.0445965714753,0.997969925404,-0.0307711679488
2021/01/19/22:13:02.857705,193,1611074582,857281738,world,-0.440663278103,-0.561792075634,0.704235374928,-0.0336446873844,0.0447816066444,0.998051941395,-0.0274776685983
2021/01/19/22:13:02.877754,194,1611074582,877252368,world,-0.44157075882,-0.560890436172,0.704256117344,-0.0331565476954,0.0447473302484,0.998127818108,-0.0252843890339
2021/01/19/22:13:02.897744,195,1611074582,897249608,world,-0.442465096712,-0.559875488281,0.704266011715,-0.032146897167,0.0450336113572,0.998234510422,-0.021599592641
2021/01/19/22:13:02.907804,196,1611074582,907266090,world,-0.443668425083,-0.55893433094,0.704176008701,-0.0328120999038,0.0464071370661,0.998233735561,-0.0173004455864
2021/01/19/22:13:02.927655,197,1611074582,927253590,world,-0.445153027773,-0.557974636555,0.704128324986,-0.0323991663754,0.0456779189408,0.998318433762,-0.0149746816605
2021/01/19/22:13:02.947664,198,1611074582,947246608,world,-0.446666508913,-0.556856334209,0.704163730145,-0.0339756421745,0.0452832765877,0.998337209225,-0.0108605986461
2021/01/19/22:13:02.957756,199,1611074582,957278256,world,-0.448175042868,-0.55553239584,0.704198300838,-0.032126609236,0.0459448881447,0.998400866985,-0.00726316822693
2021/01/19/22:13:02.977753,200,1611074582,977255793,world,-0.449641495943,-0.554211318493,0.704196929932,-0.0324407741427,0.0459011830389,0.998415887356,-0.00257112598047
2021/01/19/22:13:02.997674,201,1611074582,997247942,world,-0.451160371304,-0.552904367447,0.704182624817,-0.0328444354236,0.0469777956605,0.998354971409,0.00135441147722
2021/01/19/22:13:03.007780,202,1611074583,7264034,world,-0.452857404947,-0.551536679268,0.704180002213,-0.0317754074931,0.0459197983146,0.998430013657,0.00437663681805
2021/01/19/22:13:03.027685,203,1611074583,27246145,world,-0.45442083478,-0.550121963024,0.704250097275,-0.032468970865,0.0461019463837,0.998360335827,0.00985892582685
2021/01/19/22:13:03.047680,204,1611074583,47246071,world,-0.456052452326,-0.548887372017,0.704158127308,-0.0328857526183,0.0464153178036,0.998296916485,0.0129447132349
2021/01/19/22:13:03.057797,205,1611074583,57274590,world,-0.457387804985,-0.547562003136,0.704226374626,-0.0325123034418,0.0467981286347,0.998229265213,0.0170669108629
2021/01/19/22:13:03.077593,206,1611074583,77222534,world,-0.458864748478,-0.546259760857,0.704368531704,-0.0313017964363,0.0469539612532,0.99820625782,0.0199991520494
2021/01/19/22:13:03.097669,207,1611074583,97254071,world,-0.460596829653,-0.54510653019,0.704398095608,-0.0314219854772,0.0461162254214,0.998147428036,0.0242415107787
2021/01/19/22:13:03.107693,208,1611074583,107282682,world,-0.462280750275,-0.543912827969,0.70436924696,-0.0318349339068,0.0471865162253,0.997986257076,0.0279904641211
2021/01/19/22:13:03.127716,209,1611074583,127247016,world,-0.464053243399,-0.542605698109,0.70454287529,-0.0302860047668,0.0469405986369,0.997940719128,0.0315245911479
2021/01/19/22:13:03.147685,210,1611074583,147285053,world,-0.466221868992,-0.541414558887,0.704552710056,-0.030386660248,0.0471842139959,0.997798502445,0.035333327949
2021/01/19/22:13:03.157796,211,1611074583,157274053,world,-0.468400210142,-0.540231704712,0.704534053802,-0.0305334869772,0.047200396657,0.997662961483,0.038839597255
2021/01/19/22:13:03.177728,212,1611074583,177254016,world,-0.470866590738,-0.538929879665,0.704549431801,-0.0309804826975,0.0473116226494,0.997504651546,0.0422656796873
2021/01/19/22:13:03.197680,213,1611074583,197249238,world,-0.473179042339,-0.537537574768,0.704615294933,-0.0308562703431,0.0487900860608,0.997310638428,0.0451560802758
2021/01/19/22:13:03.207658,214,1611074583,207268793,world,-0.475727885962,-0.53612613678,0.704646587372,-0.0306445267051,0.0481756590307,0.997212052345,0.048044744879
2021/01/19/22:13:03.227723,215,1611074583,227270867,world,-0.478079468012,-0.534739077091,0.704640746117,-0.0308795254678,0.048113193363,0.996984362602,0.0524761676788
2021/01/19/22:13:03.247705,216,1611074583,247277738,world,-0.480751007795,-0.533452093601,0.704753220081,-0.0297060217708,0.0478308908641,0.996853232384,0.0557980313897
2021/01/19/22:13:03.257692,217,1611074583,257282182,world,-0.483318954706,-0.532093882561,0.704682350159,-0.0296150706708,0.0488671511412,0.996606707573,0.0592465959489
2021/01/19/22:13:03.277582,218,1611074583,277223812,world,-0.486556380987,-0.530735969543,0.704622983932,-0.0288266316056,0.0474498569965,0.996496737003,0.062545068562
2021/01/19/22:13:03.297688,219,1611074583,297257849,world,-0.489846110344,-0.52925825119,0.704486310482,-0.0306550394744,0.0479118600488,0.99619024992,0.0661044567823
2021/01/19/22:13:03.307728,220,1611074583,307275904,world,-0.493101447821,-0.527718305588,0.704351186752,-0.0306474138051,0.0486137494445,0.995931565762,0.0694101974368
2021/01/19/22:13:03.327758,221,1611074583,327248256,world,-0.496122330427,-0.526250839233,0.70440530777,-0.0299276188016,0.0477897450328,0.995736896992,0.0729966685176
2021/01/19/22:13:03.347660,222,1611074583,347247589,world,-0.499008595943,-0.524591982365,0.704450309277,-0.0303866863251,0.0489030815661,0.995382905006,0.0767982527614
2021/01/19/22:13:03.357784,223,1611074583,357276923,world,-0.502076506615,-0.522922515869,0.704520761967,-0.0295108612627,0.0487839430571,0.995171785355,0.0798903852701
2021/01/19/22:13:03.377761,224,1611074583,377320756,world,-0.50519734621,-0.521037697792,0.704613745213,-0.0279983691871,0.0475068874657,0.994943678379,0.0839425325394
2021/01/19/22:13:03.397732,225,1611074583,397250201,world,-0.508579313755,-0.519160866737,0.704461157322,-0.0290553700179,0.0484516210854,0.99458605051,0.0872165486217
2021/01/19/22:13:03.407656,226,1611074583,407261701,world,-0.51180845499,-0.517421543598,0.70446485281,-0.0286688264459,0.0481924004853,0.994259595871,0.0911233276129
2021/01/19/22:13:03.427681,227,1611074583,427257386,world,-0.515212595463,-0.515634655952,0.704385995865,-0.0274417567998,0.0494966283441,0.993931651115,0.0943236276507
2021/01/19/22:13:03.447659,228,1611074583,447248460,world,-0.518846988678,-0.514032363892,0.70447742939,-0.0297917947173,0.0494446232915,0.993445932865,0.0986561104655
2021/01/19/22:13:03.457798,229,1611074583,457279219,world,-0.522443473339,-0.512285232544,0.704238951206,-0.0298312995583,0.0493517071009,0.993177175522,0.101359464228
2021/01/19/22:13:03.477756,230,1611074583,477257867,world,-0.525692284107,-0.510383069515,0.704377889633,-0.0283372942358,0.0493880137801,0.992797374725,0.105409801006
2021/01/19/22:13:03.497670,231,1611074583,497246460,world,-0.528762936592,-0.508407115936,0.704753100872,-0.0279934350401,0.0493504293263,0.992454528809,0.108697190881
2021/01/19/22:13:03.507665,232,1611074583,507266849,world,-0.531689524651,-0.506608366966,0.704969108105,-0.0276986695826,0.0479605942965,0.992092013359,0.112632036209
2021/01/19/22:13:03.527699,233,1611074583,527279200,world,-0.534933745861,-0.504303455353,0.70520144701,-0.0266605671495,0.0482723712921,0.991622328758,0.116807863116
2021/01/19/22:13:03.547673,234,1611074583,547272367,world,-0.538850367069,-0.501925528049,0.705121636391,-0.0263760760427,0.0485659912229,0.991214156151,0.120167285204
2021/01/19/22:13:03.557723,235,1611074583,557265700,world,-0.542795360088,-0.499560475349,0.705029249191,-0.027095567435,0.0489163398743,0.990863978863,0.12272632122
2021/01/19/22:13:03.577563,236,1611074583,577222515,world,-0.546590864658,-0.497142970562,0.705058932304,-0.0269826054573,0.04989939183,0.990364432335,0.126334473491
2021/01/19/22:13:03.597700,237,1611074583,597249682,world,-0.550261676311,-0.495211094618,0.705327212811,-0.0261003244668,0.0498823449016,0.989754915237,0.131208717823
2021/01/19/22:13:03.607693,238,1611074583,607305386,world,-0.554021775723,-0.493146210909,0.705380618572,-0.0247485972941,0.0480160415173,0.989567399025,0.133560433984
2021/01/19/22:13:03.627679,239,1611074583,627248478,world,-0.558237493038,-0.49083507061,0.705460965633,-0.025361482054,0.0487145371735,0.989010035992,0.137269943953
2021/01/19/22:13:03.647652,240,1611074583,647243089,world,-0.562606155872,-0.488017201424,0.705471813679,-0.0259199161083,0.0502914600074,0.988557577133,0.139831230044
2021/01/19/22:13:03.657713,241,1611074583,657269256,world,-0.567302703857,-0.485089093447,0.705207228661,-0.0248505938798,0.0493831336498,0.988122880459,0.143377184868
2021/01/19/22:13:03.677722,242,1611074583,677258052,world,-0.572082459927,-0.481913268566,0.705209851265,-0.026515064761,0.0518893375993,0.98746150732,0.146711304784
2021/01/19/22:13:03.697711,243,1611074583,697251478,world,-0.576446533203,-0.478842288256,0.704917371273,-0.0266494583338,0.0508166663349,0.987003386021,0.15010599792
2021/01/19/22:13:03.707664,244,1611074583,707264441,world,-0.580829977989,-0.475948065519,0.705088675022,-0.023490363732,0.050764746964,0.986507117748,0.153866797686
2021/01/19/22:13:03.727694,245,1611074583,727258200,world,-0.585786759853,-0.472835332155,0.705094873905,-0.0260309278965,0.0524205155671,0.985683679581,0.158121302724
2021/01/19/22:13:03.747643,246,1611074583,747248219,world,-0.590473115444,-0.470279455185,0.70502358675,-0.0271147079766,0.0494121052325,0.985190451145,0.161935478449
2021/01/19/22:13:03.757744,247,1611074583,757271626,world,-0.594887197018,-0.468214690685,0.705571115017,-0.019920296967,0.0462353862822,0.985346496105,0.162965938449
2021/01/19/22:13:03.777698,248,1611074583,777255645,world,-0.599251866341,-0.465498745441,0.706009924412,-0.0177684724331,0.0483414530754,0.984656631947,0.166729435325
2021/01/19/22:13:03.797661,249,1611074583,797251330,world,-0.604214012623,-0.462876111269,0.705933988094,-0.0213306285441,0.0466851890087,0.984135687351,0.169831052423
2021/01/19/22:13:03.807683,250,1611074583,807291552,world,-0.608836948872,-0.459725290537,0.704958379269,-0.0301846321672,0.0472304783762,0.98281788826,0.175861403346
2021/01/19/22:13:03.827731,251,1611074583,827248626,world,-0.614514946938,-0.456757038832,0.704216957092,-0.0354013927281,0.0545719079673,0.982637107372,0.173761755228
2021/01/19/22:13:03.847683,252,1611074583,847247460,world,-0.617305636406,-0.453147053719,0.705565035343,-0.0233195759356,0.0513600148261,0.981633841991,0.182245269418
2021/01/19/22:13:03.857712,253,1611074583,857269034,world,-0.621562719345,-0.449577569962,0.705817639828,-0.0216429457068,0.0502681359649,0.981067478657,0.185772553086
2021/01/19/22:13:03.877630,254,1611074583,877227311,world,-0.626600146294,-0.44584774971,0.705818235874,-0.022557053715,0.0531526505947,0.980080008507,0.190024405718
2021/01/19/22:13:03.897705,255,1611074583,897257941,world,-0.632129728794,-0.441868335009,0.704801797867,-0.0293849334121,0.0515669248998,0.979064881802,0.194703549147
2021/01/19/22:13:03.907653,256,1611074583,907263700,world,-0.637865722179,-0.43820554018,0.705176889896,-0.0235725902021,0.0509772673249,0.978910446167,0.196417853236
2021/01/19/22:13:03.927684,257,1611074583,927252422,world,-0.642894208431,-0.434631705284,0.705043911934,-0.0308869965374,0.0506051629782,0.977867662907,0.200649261475
2021/01/19/22:13:03.947652,258,1611074583,947243071,world,-0.647156953812,-0.43153706193,0.705766737461,-0.0215009264648,0.0506801791489,0.97768163681,0.202750995755
2021/01/19/22:13:03.957772,259,1611074583,957272830,world,-0.651809096336,-0.427840948105,0.706219911575,-0.0171810463071,0.0499398596585,0.97714138031,0.205926075578
2021/01/19/22:13:03.977702,260,1611074583,977254422,world,-0.657231748104,-0.423495769501,0.706132411957,-0.02074592188,0.052455842495,0.976152539253,0.209628671408
2021/01/19/22:13:03.997761,261,1611074583,997251478,world,-0.662547290325,-0.418719738722,0.705213785172,-0.029305646196,0.0501907616854,0.974706351757,0.215800046921
2021/01/19/22:13:04.007656,262,1611074584,7261163,world,-0.667541325092,-0.414461582899,0.704834222794,-0.0288669485599,0.0530298650265,0.973947584629,0.218588411808
2021/01/19/22:13:04.027701,263,1611074584,27263459,world,-0.671730399132,-0.410432159901,0.705220580101,-0.0275564659387,0.0540746338665,0.973142445087,0.222059443593
2021/01/19/22:13:04.047682,264,1611074584,47244959,world,-0.675877332687,-0.407488763332,0.705921947956,-0.0186142101884,0.0529054626822,0.972782254219,0.224831461906
2021/01/19/22:13:04.057875,265,1611074584,57382774,world,-0.680691540241,-0.404184520245,0.705984652042,-0.0197734385729,0.0533258616924,0.97230219841,0.226702198386
2021/01/19/22:13:04.077698,266,1611074584,77256496,world,-0.685450553894,-0.400642454624,0.705288767815,-0.0265273656696,0.0521154180169,0.970956087112,0.232001364231
2021/01/19/22:13:04.097669,267,1611074584,97251385,world,-0.690576195717,-0.396991759539,0.705008029938,-0.0233932901174,0.0511409305036,0.970340430737,0.235110402107
2021/01/19/22:13:04.107692,268,1611074584,107293885,world,-0.69564473629,-0.392946273088,0.705169141293,-0.0277064274997,0.0523556508124,0.969366729259,0.238368347287
2021/01/19/22:13:04.127743,269,1611074584,127254774,world,-0.699676930904,-0.389024287462,0.704831123352,-0.0276239719242,0.0514287352562,0.968172490597,0.243380427361
2021/01/19/22:13:04.147687,270,1611074584,147249793,world,-0.703569531441,-0.385078847408,0.705408990383,-0.022348003462,0.0511160977185,0.967337191105,0.247278153896
2021/01/19/22:13:04.157867,271,1611074584,157259700,world,-0.707702875137,-0.380898237228,0.705437123775,-0.0263639092445,0.0566225126386,0.966397285461,0.249349758029
2021/01/19/22:13:04.177641,272,1611074584,177228478,world,-0.711328744888,-0.377057015896,0.705651342869,-0.024753427133,0.0509128309786,0.965514957905,0.254118412733
2021/01/19/22:13:04.197702,273,1611074584,197255422,world,-0.716921329498,-0.373627573252,0.704854786396,-0.0303452890366,0.0576525814831,0.965833365917,0.25084143877
2021/01/19/22:13:04.207629,274,1611074584,207259867,world,-0.719820559025,-0.369235098362,0.706056237221,-0.0225305818021,0.0523241646588,0.96378827095,0.260512560606
2021/01/19/22:13:04.227687,275,1611074584,227251867,world,-0.724231600761,-0.365647643805,0.705681741238,-0.0239158999175,0.0519208796322,0.962646782398,0.264657139778
2021/01/19/22:13:04.247725,276,1611074584,247250367,world,-0.728943824768,-0.361754357815,0.706340968609,-0.0150731485337,0.0517956577241,0.962386071682,0.266276478767
2021/01/19/22:13:04.257755,277,1611074584,257261867,world,-0.733665108681,-0.357659131289,0.706331431866,-0.0196738038212,0.0549832955003,0.961152434349,0.269769996405
2021/01/19/22:13:04.277789,278,1611074584,277255367,world,-0.73744058609,-0.353755563498,0.705930829048,-0.0233548451215,0.0521487407386,0.960033118725,0.273991733789
2021/01/19/22:13:04.297740,279,1611074584,297266885,world,-0.740504264832,-0.349807322025,0.706278204918,-0.0210633259267,0.050998814404,0.95887696743,0.278407126665
2021/01/19/22:13:04.307621,280,1611074584,307251052,world,-0.743784666061,-0.345544725657,0.706799685955,-0.0192626565695,0.0561733879149,0.958029747009,0.280450552702
2021/01/19/22:13:04.327676,281,1611074584,327247867,world,-0.748010933399,-0.340558975935,0.707596957684,-0.0219710581005,0.0661943927407,0.956716954708,0.28253915906
2021/01/19/22:13:04.347675,282,1611074584,347248589,world,-0.755413353443,-0.335691481829,0.704489827156,-0.0203054323792,0.0655425041914,0.957604289055,0.279796242714
2021/01/19/22:13:04.357725,283,1611074584,357255774,world,-0.758767783642,-0.330334633589,0.706352591515,-0.0150765208527,0.0517761819065,0.956135392189,0.287918776274
2021/01/19/22:13:04.377760,284,1611074584,377260607,world,-0.763048350811,-0.32561725378,0.705378293991,-0.0225874576718,0.0558352805674,0.954205572605,0.293025761843
2021/01/19/22:13:04.397712,285,1611074584,397246718,world,-0.767428517342,-0.321274012327,0.705895125866,-0.0172111056745,0.0555382072926,0.95341283083,0.296012401581
2021/01/19/22:13:04.407627,286,1611074584,407260459,world,-0.773177802563,-0.316941291094,0.704627811909,-0.0326811596751,0.0599083937705,0.953182935715,0.294593542814
2021/01/19/22:13:04.457631,287,1611074584,457213552,world,-0.785349011421,-0.300448000431,0.7064473629,-0.0167927443981,0.0551839023829,0.949771165848,0.307583451271
2021/01/19/22:13:04.477786,288,1611074584,477268681,world,-0.788288891315,-0.295707374811,0.706272602081,-0.0192453432828,0.0577651001513,0.948457837105,0.310999244452
2021/01/19/22:13:04.527707,289,1611074584,527249496,world,-0.797726035118,-0.282135367393,0.706991374493,-0.00958817265928,0.0527479685843,0.94483423233,0.323131710291
2021/01/19/22:13:04.547723,290,1611074584,547244163,world,-0.803944945335,-0.277968645096,0.704592823982,-0.0297229662538,0.0612640827894,0.943779885769,0.323485463858
2021/01/19/22:13:04.557754,291,1611074584,557255552,world,-0.807702839375,-0.273732036352,0.704861938953,-0.0235490985215,0.0550648272038,0.940808951855,0.333604425192
2021/01/19/22:13:04.577713,292,1611074584,577248904,world,-0.812467455864,-0.271249175072,0.704473972321,-0.0349298529327,0.0585973337293,0.940927386284,0.331665426493
2021/01/19/22:13:04.597622,293,1611074584,597219237,world,-0.81440615654,-0.267692536116,0.706082701683,-0.0196722876281,0.0539071299136,0.938388586044,0.340784281492
2021/01/19/22:13:04.627743,294,1611074584,627265478,world,-0.821567058563,-0.259689539671,0.705266535282,-0.0282899867743,0.0564179793,0.936801970005,0.344120204449
2021/01/19/22:13:04.647691,295,1611074584,647246015,world,-0.824830532074,-0.253543436527,0.706182181835,-0.0131074357778,0.051505215466,0.934533238411,0.351884961128
2021/01/19/22:13:04.657731,296,1611074584,657259737,world,-0.828839659691,-0.248557269573,0.704472184181,-0.030009444803,0.0575430653989,0.933840334415,0.351753532887
2021/01/19/22:13:04.677762,297,1611074584,677259366,world,-0.832076311111,-0.243832677603,0.704762160778,-0.0286894198507,0.062443010509,0.933211505413,0.352695375681
2021/01/19/22:13:04.707706,298,1611074584,707227941,world,-0.83793836832,-0.23511621356,0.706319332123,-0.0150530003011,0.0574529655278,0.930388748646,0.361731171608
2021/01/19/22:13:04.727691,299,1611074584,727249626,world,-0.843118786812,-0.230846554041,0.705162465572,-0.0279972311109,0.0581031665206,0.931371688843,0.358311295509
2021/01/19/22:13:04.747750,300,1611074584,747248311,world,-0.84616547823,-0.225387915969,0.706017673016,-0.0146934967488,0.0533256679773,0.929741322994,0.364035278559
2021/01/19/22:13:04.777787,301,1611074584,777281366,world,-0.851915061474,-0.214950814843,0.706263303757,-0.0131678692997,0.0526835955679,0.927172362804,0.370678424835
2021/01/19/22:13:04.797876,302,1611074584,797305626,world,-0.855055868626,-0.20944596827,0.706787288189,-0.0117627084255,0.0559549331665,0.925281047821,0.374947696924
2021/01/19/22:13:04.807719,303,1611074584,807275218,world,-0.859051525593,-0.203703030944,0.705624580383,-0.0199324991554,0.0578341782093,0.923107981682,0.379643887281
2021/01/19/22:13:04.827643,304,1611074584,827232663,world,-0.862715125084,-0.198496922851,0.705590486526,-0.0198451112956,0.0519259683788,0.921735286713,0.383815139532
2021/01/19/22:13:04.877748,305,1611074584,877248607,world,-0.87046700716,-0.184308305383,0.706849336624,-0.0116217089817,0.0548388510942,0.916876971722,0.395214378834
2021/01/19/22:13:04.897693,306,1611074584,897250052,world,-0.873834908009,-0.179415807128,0.706229925156,-0.0161588732153,0.0554359853268,0.915363848209,0.398465752602
2021/01/19/22:13:04.907676,307,1611074584,907260552,world,-0.876752853394,-0.17424659431,0.70650935173,-0.0115416329354,0.0539865978062,0.913474738598,0.403132855892
2021/01/19/22:13:04.927721,308,1611074584,927275514,world,-0.880147278309,-0.169173330069,0.706184506416,-0.0139002352953,0.0575734227896,0.912224590778,0.405386924744
2021/01/19/22:13:04.947700,309,1611074584,947243459,world,-0.883187770844,-0.165201053023,0.70647341013,-0.0133843766525,0.0526150390506,0.911114752293,0.408561617136
2021/01/19/22:13:04.957711,310,1611074584,957256551,world,-0.886294007301,-0.160802990198,0.706511080265,-0.00987446215004,0.0542122535408,0.910461246967,0.409907191992
2021/01/19/22:13:04.977807,311,1611074584,977258903,world,-0.889438152313,-0.156037554145,0.706861555576,-0.0120901567861,0.0552856996655,0.909231424332,0.412426561117
2021/01/19/22:13:04.997683,312,1611074584,997253088,world,-0.892483711243,-0.151239648461,0.706620395184,-0.0129531938583,0.0508811585605,0.908008813858,0.415648162365
2021/01/19/22:13:05.007637,313,1611074585,7258126,world,-0.895138680935,-0.145567595959,0.706561625004,-0.0107124326751,0.0533863678575,0.906737148762,0.418166279793
2021/01/19/22:13:05.027714,314,1611074585,27245200,world,-0.897295355797,-0.139791339636,0.706690967083,-0.0123596247286,0.0570671930909,0.904794216156,0.421826928854
2021/01/19/22:13:05.047698,315,1611074585,47243792,world,-0.900161206722,-0.134347364306,0.706109464169,-0.0140893897042,0.0527286306024,0.903690993786,0.424692571163
2021/01/19/22:13:05.057752,316,1611074585,57255514,world,-0.903244793415,-0.128207430243,0.706458508968,-0.0120155150071,0.0566950626671,0.901574969292,0.428723692894
2021/01/19/22:13:05.077758,317,1611074585,77256588,world,-0.906438529491,-0.122526817024,0.706014335155,-0.0130503056571,0.0564172118902,0.899898052216,0.432238906622
2021/01/19/22:13:05.097723,318,1611074585,97250200,world,-0.909512460232,-0.11736818403,0.706274032593,-0.0100191058591,0.0522197335958,0.898547768593,0.435642898083
2021/01/19/22:13:05.107685,319,1611074585,107265440,world,-0.912790060043,-0.111716166139,0.70623087883,-0.0132438596338,0.0580719634891,0.896437108517,0.439150184393
2021/01/19/22:13:05.127671,320,1611074585,127249237,world,-0.915677964687,-0.106654681265,0.705855250359,-0.0155019480735,0.0538155920804,0.896114528179,0.440275371075
2021/01/19/22:13:05.147665,321,1611074585,147247181,world,-0.917433083057,-0.101224444807,0.706302940845,-0.00996593479067,0.0519907362759,0.894280433655,0.444364994764
2021/01/19/22:13:05.157699,322,1611074585,157256422,world,-0.91934633255,-0.0954414829612,0.706673145294,-0.0106041692197,0.058059617877,0.892323851585,0.447520852089
2021/01/19/22:13:05.177720,323,1611074585,177261496,world,-0.920972287655,-0.0899501144886,0.706698060036,-0.00889056082815,0.0536180064082,0.891332387924,0.450080782175
2021/01/19/22:13:05.197765,324,1611074585,197246051,world,-0.922913253307,-0.0841036662459,0.7067476511,-0.00883264839649,0.0563370324671,0.889082431793,0.454181224108
2021/01/19/22:13:05.207676,325,1611074585,207259607,world,-0.924646735191,-0.0786838680506,0.707018613815,-0.0104479035363,0.0579151548445,0.887827277184,0.456398308277
2021/01/19/22:13:05.227756,326,1611074585,227278551,world,-0.926692605019,-0.0745545476675,0.7072301507,-0.00824676360935,0.0524041205645,0.885929644108,0.460775911808
2021/01/19/22:13:05.247737,327,1611074585,247271829,world,-0.9289919734,-0.0702856108546,0.707622885704,-0.00811279378831,0.0559874251485,0.884502112865,0.463093608618
2021/01/19/22:13:05.257701,328,1611074585,257256477,world,-0.931373775005,-0.0657219216228,0.707544207573,-0.00730603327975,0.0523172616959,0.883195877075,0.466019928455
2021/01/19/22:13:05.277719,329,1611074585,277263551,world,-0.934246778488,-0.0604796558619,0.707565784454,-0.00749361235648,0.0542466491461,0.882067322731,0.467930078506
2021/01/19/22:13:05.297718,330,1611074585,297245125,world,-0.936566114426,-0.0548785589635,0.707367658615,-0.0091657275334,0.0537245720625,0.880546569824,0.470815718174
2021/01/19/22:13:05.307673,331,1611074585,307255533,world,-0.938408017159,-0.0490947887301,0.707241415977,-0.0075639905408,0.0520178042352,0.878729581833,0.474416702986
2021/01/19/22:13:05.327696,332,1611074585,327242088,world,-0.939800858498,-0.0429542846978,0.70747178793,-0.00762473139912,0.0568475052714,0.876758158207,0.47749915719
2021/01/19/22:13:05.347698,333,1611074585,347244273,world,-0.941032767296,-0.036716658622,0.707305252552,-0.00575111247599,0.0534623414278,0.875532507896,0.480157881975
2021/01/19/22:13:05.357644,334,1611074585,357264292,world,-0.942799091339,-0.0295589715242,0.707381784916,-0.00551425432786,0.0572013780475,0.873245358467,0.483880341053
2021/01/19/22:13:05.377717,335,1611074585,377261977,world,-0.945017874241,-0.0223092455417,0.706988930702,-0.00845663994551,0.0607574023306,0.871323466301,0.486859917641
2021/01/19/22:13:05.397687,336,1611074585,397250551,world,-0.946964085102,-0.0163208227605,0.706744194031,-0.00998397357762,0.0559683144093,0.869852125645,0.49002584815
2021/01/19/22:13:05.407627,337,1611074585,407253959,world,-0.94906193018,-0.0103213060647,0.70686262846,-0.00402699969709,0.0580204315484,0.868358612061,0.492514759302
2021/01/19/22:13:05.427696,338,1611074585,427242903,world,-0.951431870461,-0.00413998542354,0.706848919392,-0.00649429205805,0.0598880946636,0.86642485857,0.495660513639
2021/01/19/22:13:05.447685,339,1611074585,447252273,world,-0.95413428545,0.00190482172184,0.706283986568,-0.010180734098,0.0564038604498,0.864916741848,0.498632222414
2021/01/19/22:13:05.457761,340,1611074585,457255273,world,-0.956448733807,0.00822662189603,0.706339359283,-0.00772634334862,0.0580439344049,0.863874495029,0.50029194355
2021/01/19/22:13:05.477749,341,1611074585,477273162,world,-0.957857966423,0.0136263193563,0.706556200981,-0.00874322932214,0.059045728296,0.861321210861,0.50454223156
2021/01/19/22:13:05.497731,342,1611074585,497245736,world,-0.958993375301,0.0184767302126,0.706496298313,-0.00664923898876,0.0568551234901,0.860191404819,0.506748735905
2021/01/19/22:13:05.507627,343,1611074585,507257422,world,-0.960003376007,0.0239277742803,0.707076728344,-0.00359793566167,0.0558399409056,0.858739078045,0.509348750114
2021/01/19/22:13:05.527663,344,1611074585,527247273,world,-0.961498379707,0.0303696449846,0.706977784634,-0.00386488251388,0.0593981072307,0.856653034687,0.512447595596
2021/01/19/22:13:05.547660,345,1611074585,547244403,world,-0.963038146496,0.0364755578339,0.706586539745,-0.00807405635715,0.0575907193124,0.854601144791,0.51601845026
2021/01/19/22:13:05.557693,346,1611074585,557252755,world,-0.964096188545,0.0423187464476,0.706433534622,-0.0064748916775,0.057169739157,0.852689445019,0.51924020052
2021/01/19/22:13:05.577698,347,1611074585,577253625,world,-0.96514749527,0.047594897449,0.706931114197,-0.00444703642279,0.0620137043297,0.851123332977,0.52127122879
2021/01/19/22:13:05.597715,348,1611074585,597246477,world,-0.966120541096,0.0515850745142,0.707148492336,-0.00562718091533,0.057262878865,0.84890794754,0.525399565697
2021/01/19/22:13:05.607683,349,1611074585,607292681,world,-0.967423081398,0.0563367307186,0.707426905632,-0.00119654100854,0.0534640140831,0.84712600708,0.528694331646
2021/01/19/22:13:05.627781,350,1611074585,627286755,world,-0.969063639641,0.062397826463,0.707759797573,-0.0023264863994,0.0602828003466,0.845051646233,0.531270503998
2021/01/19/22:13:05.647768,351,1611074585,647243996,world,-0.97060918808,0.0676253214478,0.707323789597,-0.00771479960531,0.0549496859312,0.842502236366,0.535827517509
2021/01/19/22:13:05.657702,352,1611074585,657259255,world,-0.971327900887,0.0728649124503,0.707674980164,-0.00292049255222,0.053181707859,0.841652154922,0.53738707304
2021/01/19/22:13:05.677827,353,1611074585,677283940,world,-0.972143471241,0.0791257694364,0.708109617233,-0.000276750710327,0.0605515129864,0.839262545109,0.540344297886
2021/01/19/22:13:05.697738,354,1611074585,697250033,world,-0.973283112049,0.0851664245129,0.707807302475,-0.00269924337044,0.0563079416752,0.837397456169,0.543679654598
2021/01/19/22:13:05.707716,355,1611074585,707268144,world,-0.974368572235,0.0910042375326,0.707636475563,-0.00423921318725,0.0548496581614,0.83530151844,0.547032892704
2021/01/19/22:13:05.727693,356,1611074585,727255051,world,-0.975104689598,0.0968876257539,0.707955121994,-0.00142844521906,0.0594984665513,0.833855330944,0.548765301704
2021/01/19/22:13:05.747717,357,1611074585,747247662,world,-0.976287603378,0.102516524494,0.708122313023,0.00207935250364,0.055683825165,0.832759857178,0.550823092461
2021/01/19/22:13:05.757652,358,1611074585,757265495,world,-0.977966725826,0.108942694962,0.707638561726,-0.000858076033182,0.0557736866176,0.83043807745,0.554311394691
2021/01/19/22:13:05.777726,359,1611074585,777262551,world,-0.979516983032,0.115710549057,0.707766830921,-0.0021585628856,0.0560913383961,0.828863561153,0.556627631187
2021/01/19/22:13:05.797739,360,1611074585,797282514,world,-0.981007754803,0.122468315065,0.707005918026,-0.00197752355598,0.0595054775476,0.827006578445,0.55903083086
2021/01/19/22:13:05.807678,361,1611074585,807268310,world,-0.982317745686,0.12872081995,0.707018494606,-0.00241113151424,0.0568145252764,0.825131952763,0.562070965767
2021/01/19/22:13:05.827688,362,1611074585,827248255,world,-0.982904553413,0.134801194072,0.706913769245,-0.00299487099983,0.0589193366468,0.823068976402,0.564868986607
2021/01/19/22:13:05.847646,363,1611074585,847244551,world,-0.983518362045,0.140699192882,0.707195222378,0.00161637994461,0.0573376566172,0.821172535419,0.567790031433
2021/01/19/22:13:05.857765,364,1611074585,857259088,world,-0.983914136887,0.146826371551,0.707281351089,-0.000435548747191,0.0580455772579,0.818913161755,0.570974469185
2021/01/19/22:13:05.877788,365,1611074585,877265236,world,-0.984685778618,0.152833297849,0.706657767296,0.00347567326389,0.0610292814672,0.814655005932,0.576715290546
2021/01/19/22:13:05.897728,366,1611074585,897249718,world,-0.984939694405,0.15950357914,0.707097709179,0.000821394787636,0.0571337155998,0.814698278904,0.577063083649
2021/01/19/22:13:05.907670,367,1611074585,907276681,world,-0.985527873039,0.165885254741,0.706900417805,-0.0019080840284,0.0612867958844,0.81200915575,0.580414891243
2021/01/19/22:13:05.927668,368,1611074585,927248477,world,-0.986078500748,0.171327248216,0.706905424595,-0.00084742018953,0.057430382818,0.810470879078,0.582956254482
2021/01/19/22:13:05.947648,369,1611074585,947245662,world,-0.986608684063,0.177312046289,0.706735730171,0.00150422379375,0.056192368269,0.808781921864,0.585416197777
2021/01/19/22:13:05.957697,370,1611074585,957259329,world,-0.98749011755,0.183672100306,0.706888079643,6.62977690808e-05,0.063542380929,0.806420385838,0.587918817997
2021/01/19/22:13:05.977779,371,1611074585,977260829,world,-0.988504648209,0.18939499557,0.70624756813,-0.00356370676309,0.057598862797,0.80476474762,0.590782046318
2021/01/19/22:13:05.997613,372,1611074585,997219199,world,-0.989351868629,0.19562497735,0.706404864788,9.77042072918e-05,0.05815250054,0.802346348763,0.594019055367
2021/01/19/22:13:06.007673,373,1611074586,7269514,world,-0.989879965782,0.202239781618,0.706413209438,-0.000635142438114,0.0627430304885,0.800681471825,0.59579539299
2021/01/19/22:13:06.027673,374,1611074586,27247625,world,-0.990578532219,0.208025917411,0.705989897251,-0.00177266180981,0.0569462925196,0.798654794693,0.599086403847
2021/01/19/22:13:06.047662,375,1611074586,47242717,world,-0.990739524364,0.214796572924,0.706120669842,-0.000356867240043,0.0591175332665,0.796569526196,0.601649522781
2021/01/19/22:13:06.057691,376,1611074586,57253495,world,-0.99080401659,0.221579015255,0.705992758274,0.00070000794949,0.0616242028773,0.793999969959,0.604786038399
2021/01/19/22:13:06.077768,377,1611074586,77257458,world,-0.991237998009,0.227589085698,0.705806553364,-0.00129986996762,0.0581556484103,0.792043209076,0.607687294483
2021/01/19/22:13:06.097724,378,1611074586,97249680,world,-0.991490066051,0.233494952321,0.70592468977,-0.000882039777935,0.060297653079,0.789923012257,0.610233604908
2021/01/19/22:13:06.107814,379,1611074586,107265958,world,-0.991641879082,0.239258572459,0.70611089468,0.00235233129933,0.0603525079787,0.788010954857,0.612691402435
2021/01/19/22:13:06.127754,380,1611074586,127244569,world,-0.992036163807,0.245272174478,0.706096708775,0.00127399119083,0.0589203350246,0.786248385906,0.615093708038
2021/01/19/22:13:06.147631,381,1611074586,147244792,world,-0.992232322693,0.251216113567,0.705921947956,-0.0024064600002,0.059743963182,0.783463358879,0.618554890156
2021/01/19/22:13:06.157702,382,1611074586,157251977,world,-0.99206840992,0.25702804327,0.706163764,0.00108679523692,0.0576917789876,0.782048642635,0.620540499687
2021/01/19/22:13:06.177764,383,1611074586,177257310,world,-0.991998195648,0.262622565031,0.706338346004,0.000891735428013,0.0617402046919,0.779986739159,0.622742533684
2021/01/19/22:13:06.197685,384,1611074586,197251903,world,-0.991685807705,0.267553091049,0.706559002399,-0.000787432072684,0.0574167594314,0.777791976929,0.625893294811
2021/01/19/22:13:06.207638,385,1611074586,207254736,world,-0.991315186024,0.273019939661,0.70656400919,0.00331242545508,0.0574641637504,0.775740087032,0.628421962261
2021/01/19/22:13:06.227728,386,1611074586,227247366,world,-0.990939199924,0.279158651829,0.706721484661,0.00288138794713,0.0607035495341,0.773552775383,0.630811393261
2021/01/19/22:13:06.247704,387,1611074586,247242180,world,-0.99112534523,0.285607784986,0.7060084939,0.000351433467586,0.0586836375296,0.771127581596,0.633970320225
2021/01/19/22:13:06.257778,388,1611074586,257261162,world,-0.990943789482,0.291801214218,0.706028044224,0.00153531809337,0.0584857985377,0.76884585619,0.636752068996
2021/01/19/22:13:06.277725,389,1611074586,277266662,world,-0.991059780121,0.297570616007,0.705584347248,0.00806187279522,0.0622495226562,0.764568448067,0.641478836536
2021/01/19/22:13:06.297737,390,1611074586,297250958,world,-0.990925610065,0.303838372231,0.706088781357,0.00403823610395,0.0578015930951,0.764591693878,0.641905248165
2021/01/19/22:13:06.307656,391,1611074586,307270625,world,-0.990757107735,0.310180515051,0.705994665623,0.00043690498569,0.0593371726573,0.762726724148,0.643992900848
2021/01/19/22:13:06.327670,392,1611074586,327247106,world,-0.990581214428,0.315736055374,0.705672502518,0.00719572464004,0.0592161901295,0.758092164993,0.649413585663
2021/01/19/22:13:06.347692,393,1611074586,347242940,world,-0.989582061768,0.322188168764,0.706080019474,0.00538532063365,0.0563932321966,0.758010923862,0.649777054787
2021/01/19/22:13:06.357745,394,1611074586,357297847,world,-0.989114463329,0.329189658165,0.705938279629,0.00191598606762,0.0622216127813,0.755328893661,0.652382731438
2021/01/19/22:13:06.377716,395,1611074586,377263514,world,-0.988460183144,0.335700243711,0.705558121204,0.000554342113901,0.0590765215456,0.752858757973,0.655525386333
2021/01/19/22:13:06.397721,396,1611074586,397248402,world,-0.987667381763,0.341559261084,0.705404579639,0.00344558758661,0.0599433109164,0.75106215477,0.657495677471
2021/01/19/22:13:06.407669,397,1611074586,407297032,world,-0.987010836601,0.346982747316,0.70579123497,0.00509386369959,0.0600411854684,0.748710036278,0.660153388977
2021/01/19/22:13:06.427785,398,1611074586,427290662,world,-0.986658632755,0.352819085121,0.705811679363,0.00530677754432,0.057733360678,0.746876895428,0.662430167198
2021/01/19/22:13:06.447707,399,1611074586,447244217,world,-0.986172795296,0.35942864418,0.705833613873,0.00245596212335,0.0597755052149,0.744750499725,0.664656043053
2021/01/19/22:13:06.457707,400,1611074586,457261069,world,-0.985251545906,0.365265488625,0.705462038517,0.0037650661543,0.0581919811666,0.743093907833,0.666641592979
2021/01/19/22:13:06.477714,401,1611074586,477259995,world,-0.984425723553,0.370973408222,0.705674111843,0.00654589990154,0.0579881519079,0.740460813046,0.669561266899
2021/01/19/22:13:06.497674,402,1611074586,497250217,world,-0.983557879925,0.376466631889,0.70588773489,0.0052207512781,0.0603585243225,0.738201498985,0.671854317188
2021/01/19/22:13:06.507799,403,1611074586,507272421,world,-0.983146071434,0.381677001715,0.705594420433,0.00525159481913,0.0561639554799,0.734957575798,0.675762891769
2021/01/19/22:13:06.527719,404,1611074586,527244699,world,-0.982451558113,0.388125419617,0.70572000742,0.00599076692015,0.0602326095104,0.732691645622,0.677863657475
2021/01/19/22:13:06.547642,405,1611074586,547242717,world,-0.981771469116,0.394074052572,0.705460488796,0.00334362336434,0.059957485646,0.729731023312,0.681092262268
2021/01/19/22:13:06.557635,406,1611074586,557266606,world,-0.981052279472,0.399522721767,0.705351829529,0.00491057755426,0.0566364899278,0.727542757988,0.683702945709
2021/01/19/22:13:06.577778,407,1611074586,577285069,world,-0.980354547501,0.405300974846,0.705294847488,0.0112755680457,0.0605567134917,0.722509384155,0.688611626625
2021/01/19/22:13:06.597775,408,1611074586,597281310,world,-0.979274272919,0.411297142506,0.705157279968,0.00968033447862,0.0600593388081,0.71962249279,0.691695570946
2021/01/19/22:13:06.607763,409,1611074586,607305550,world,-0.977596223354,0.417765915394,0.705404639244,0.00540910661221,0.0568600818515,0.720748484135,0.690839588642
2021/01/19/22:13:06.627627,410,1611074586,627222458,world,-0.975926756859,0.424520939589,0.705087602139,0.00623134663329,0.0614158958197,0.717586278915,0.69372856617
2021/01/19/22:13:06.647692,411,1611074586,647252143,world,-0.9746530056,0.430742621422,0.70513343811,0.00591416284442,0.0599461197853,0.715556204319,0.695953130722
2021/01/19/22:13:06.657786,412,1611074586,657274662,world,-0.974212288857,0.436439186335,0.704413533211,0.00944231264293,0.0598528496921,0.710346102715,0.701239585876
2021/01/19/22:13:06.677815,413,1611074586,677265421,world,-0.97291713953,0.442945867777,0.705207705498,0.00663337949663,0.0588931255043,0.711353957653,0.700330793858
2021/01/19/22:13:06.697636,414,1611074586,697224236,world,-0.971870183945,0.44887945056,0.705009639263,0.005443086382,0.0595483370125,0.709037780762,0.702630639076
2021/01/19/22:13:06.707675,415,1611074586,707283050,world,-0.970651090145,0.454417437315,0.705194652081,0.00533001776785,0.0568755827844,0.707060039043,0.704842448235
2021/01/19/22:13:06.727704,416,1611074586,727255624,world,-0.968884766102,0.46013173461,0.70541703701,0.00741250114515,0.0598785616457,0.705119013786,0.706517338753
2021/01/19/22:13:06.747643,417,1611074586,747248273,world,-0.967058598995,0.465426236391,0.705556094646,0.00786962546408,0.0585295259953,0.702823519707,0.708908617496
2021/01/19/22:13:06.757701,418,1611074586,757272217,world,-0.965759992599,0.469635784626,0.70496326685,0.0128668118268,0.063529111445,0.696636795998,0.714489817619
2021/01/19/22:13:06.777693,419,1611074586,777263569,world,-0.963185250759,0.475111484528,0.705951750278,0.00987648125738,0.0592714548111,0.696399450302,0.715134382248
2021/01/19/22:13:06.797791,420,1611074586,797247236,world,-0.961586952209,0.480224877596,0.70619058609,0.00990457460284,0.0586089603603,0.69417488575,0.71734803915
2021/01/19/22:13:06.807766,421,1611074586,807280106,world,-0.960242509842,0.486052155495,0.706012010574,0.00959844235331,0.0588667578995,0.691753745079,0.71966612339
2021/01/19/22:13:06.827700,422,1611074586,827249161,world,-0.959040284157,0.491701334715,0.70597165823,0.00936213508248,0.0602990053594,0.689399719238,0.721806406975
2021/01/19/22:13:06.847661,423,1611074586,847244143,world,-0.958032250404,0.496588021517,0.705759763718,0.0141249606386,0.0579579733312,0.684917271137,0.726174712181
2021/01/19/22:13:06.857698,424,1611074586,857272847,world,-0.956433415413,0.50215524435,0.706289410591,0.0127819897607,0.056308478117,0.685763537884,0.725530445576
2021/01/19/22:13:06.877722,425,1611074586,877265976,world,-0.954763770103,0.507129967213,0.706580281258,0.0099105508998,0.0573095344007,0.682717978954,0.728363633156
2021/01/19/22:13:06.897683,426,1611074586,897250754,world,-0.952715396881,0.512419581413,0.706604361534,0.0118138641119,0.0545723438263,0.679519414902,0.731529712677
2021/01/19/22:13:06.907652,427,1611074586,907269680,world,-0.950709044933,0.518644094467,0.706972002983,0.0147942379117,0.0561322569847,0.676920950413,0.733763217926
2021/01/19/22:13:06.927684,428,1611074586,927249013,world,-0.949454009533,0.525048553944,0.706174254417,0.00945326779038,0.0634000077844,0.674860179424,0.735156357288
2021/01/19/22:13:06.947647,429,1611074586,947245273,world,-0.947835028172,0.529950976372,0.706403195858,0.00842267647386,0.0545843504369,0.670771360397,0.739604949951
2021/01/19/22:13:06.957742,430,1611074586,957273976,world,-0.946190655231,0.535314202309,0.706806898117,0.0148031702265,0.0530752018094,0.668712317944,0.741476774216
2021/01/19/22:13:06.977731,431,1611074586,977263995,world,-0.94438624382,0.540978908539,0.707431733608,0.0132643971592,0.0576979294419,0.666422247887,0.743220329285
2021/01/19/22:13:06.997671,432,1611074586,997221272,world,-0.942497372627,0.546764016151,0.706605195999,0.00865102745593,0.0524254217744,0.663657069206,0.74614751339
2021/01/19/22:13:07.007684,433,1611074587,7269995,world,-0.939641296864,0.552567481995,0.706745922565,0.0130005180836,0.055873401463,0.66110086441,0.748100876808
2021/01/19/22:13:07.027706,434,1611074587,27251513,world,-0.936927258968,0.558356404305,0.706576228142,0.0142380464822,0.0632490515709,0.660244584084,0.748247265816
2021/01/19/22:13:07.047679,435,1611074587,47291143,world,-0.935021460056,0.562888860703,0.706088900566,0.016202904284,0.0582697503269,0.654981315136,0.75322073698
2021/01/19/22:13:07.057655,436,1611074587,57265902,world,-0.931299448013,0.568460583687,0.707227766514,0.0145334452391,0.0574086718261,0.654054403305,0.754125833511
2021/01/19/22:13:07.077702,437,1611074587,77261106,world,-0.928947687149,0.573711872101,0.707337975502,0.0174250230193,0.0554863624275,0.651463091373,0.756447911263
2021/01/19/22:13:07.097660,438,1611074587,97251458,world,-0.927080392838,0.579606235027,0.70688867569,0.0156785808504,0.0540987439454,0.64831084013,0.759289562702
2021/01/19/22:13:07.107690,439,1611074587,107276643,world,-0.925737738609,0.585715651512,0.706676900387,0.0171250682324,0.056651674211,0.643543422222,0.763118088245
2021/01/19/22:13:07.127668,440,1611074587,127248087,world,-0.923860728741,0.591871380806,0.706045091152,0.0180346034467,0.0559296384454,0.641018331051,0.765272676945
2021/01/19/22:13:07.147659,441,1611074587,147246606,world,-0.922171890736,0.597855627537,0.706107318401,0.0188642982394,0.0554868765175,0.637375354767,0.76832151413
2021/01/19/22:13:07.157647,442,1611074587,157262513,world,-0.919938981533,0.604096353054,0.705910742283,0.00977970752865,0.0613984502852,0.638511478901,0.767096996307
2021/01/19/22:13:07.177696,443,1611074587,177261717,world,-0.917369544506,0.609350502491,0.706044971943,0.0161365158856,0.0523488409817,0.632541596889,0.77258682251
2021/01/19/22:13:07.197659,444,1611074587,197252921,world,-0.914218902588,0.614750027657,0.706387996674,0.020187670365,0.0559009611607,0.629301905632,0.774884939194
2021/01/19/22:13:07.207633,445,1611074587,207266106,world,-0.911122083664,0.619614779949,0.706286489964,0.0177019555122,0.057018250227,0.625402569771,0.7780148983
2021/01/19/22:13:07.227708,446,1611074587,227263661,world,-0.908563256264,0.62524586916,0.705780744553,0.019462723285,0.0585306845605,0.623834133148,0.779118955135
2021/01/19/22:13:07.247642,447,1611074587,247247050,world,-0.90503269434,0.630960404873,0.706338822842,0.0148487724364,0.0621031485498,0.623387992382,0.77930110693
2021/01/19/22:13:07.257708,448,1611074587,257265106,world,-0.902153611183,0.635690867901,0.706396281719,0.0158209260553,0.0539905242622,0.620182216167,0.782437682152
2021/01/19/22:13:07.277768,449,1611074587,277300865,world,-0.899483859539,0.641289651394,0.706714212894,0.0177218057215,0.0556339919567,0.618695020676,0.783458590508
2021/01/19/22:13:07.297749,450,1611074587,297251087,world,-0.897267878056,0.646153688431,0.706691980362,0.0193643514067,0.0591809228063,0.613209962845,0.787461996078
2021/01/19/22:13:07.307640,451,1611074587,307272809,world,-0.895570874214,0.650798559189,0.705704629421,0.0189255382866,0.0590308718383,0.612014353275,0.788413345814
2021/01/19/22:13:07.327662,452,1611074587,327250976,world,-0.892719388008,0.656053900719,0.706395208836,0.0222379472107,0.059190236032,0.609755218029,0.790063738823
2021/01/19/22:13:07.347648,453,1611074587,347249587,world,-0.889398813248,0.661499559879,0.706351876259,0.0205833986402,0.063391789794,0.605769515038,0.79284375906
2021/01/19/22:13:07.357650,454,1611074587,357262606,world,-0.885951042175,0.666600286961,0.707006156445,0.0172067582607,0.0536820031703,0.605524897575,0.793827295303
2021/01/19/22:13:07.377691,455,1611074587,377260087,world,-0.882996022701,0.671476781368,0.707255125046,0.0202496442944,0.0542975068092,0.602670133114,0.795883476734
2021/01/19/22:13:07.397652,456,1611074587,397250309,world,-0.880801081657,0.676352679729,0.707346618176,0.0235186032951,0.0552126355469,0.597217679024,0.799830973148
2021/01/19/22:13:07.407665,457,1611074587,407270106,world,-0.878534853458,0.681613922119,0.707186698914,0.0205857530236,0.0519723407924,0.594098985195,0.802447199821
2021/01/19/22:13:07.427644,458,1611074587,427247920,world,-0.875818729401,0.687438249588,0.707145273685,0.0189236029983,0.0567660629749,0.593536317348,0.802579641342
2021/01/19/22:13:07.447634,459,1611074587,447243994,world,-0.873638510704,0.692674040794,0.706701517105,0.0230590552092,0.0592315234244,0.588011860847,0.80635112524
2021/01/19/22:13:07.457651,460,1611074587,457267494,world,-0.870547235012,0.698839128017,0.707003712654,0.0169298257679,0.0552850551903,0.589133381844,0.805964529514
2021/01/19/22:13:07.477692,461,1611074587,477269568,world,-0.868085503578,0.704085469246,0.706831216812,0.0157101433724,0.0559571497142,0.586400389671,0.807933568954
2021/01/19/22:13:07.497692,462,1611074587,497252457,world,-0.865824460983,0.708748579025,0.70659995079,0.0222992561758,0.0577908419073,0.579767227173,0.812424242496
2021/01/19/22:13:07.507671,463,1611074587,507308272,world,-0.862771391869,0.713882625103,0.706544756889,0.0224974229932,0.0578377321362,0.577736854553,0.813860416412
2021/01/19/22:13:07.527640,464,1611074587,527245291,world,-0.859167158604,0.719374895096,0.706432878971,0.0203948374838,0.0572343319654,0.574649631977,0.816141009331
2021/01/19/22:13:07.547628,465,1611074587,547243772,world,-0.854841291904,0.725395441055,0.706281602383,0.0224290136248,0.0601525641978,0.570380449295,0.818867981434
2021/01/19/22:13:07.557690,466,1611074587,557272550,world,-0.850909292698,0.730712890625,0.705797731876,0.0231923237443,0.0584847480059,0.567597568035,0.820898771286
2021/01/19/22:13:07.577695,467,1611074587,577260013,world,-0.846310734749,0.736162126064,0.706311643124,0.0190468337387,0.0553351119161,0.56713026762,0.821546435356
2021/01/19/22:13:07.597546,468,1611074587,597217957,world,-0.843523681164,0.741337060928,0.705656766891,0.0138833997771,0.0648279115558,0.568413734436,0.820067346096
2021/01/19/22:13:07.607560,469,1611074587,607244791,world,-0.840422928333,0.745403110981,0.705796778202,0.0144109735265,0.0606981962919,0.565313160419,0.82251393795
2021/01/19/22:13:07.627696,470,1611074587,627279180,world,-0.838152766228,0.749688148499,0.705793619156,0.0218694675714,0.0558055341244,0.559239923954,0.826836287975
2021/01/19/22:13:07.647658,471,1611074587,647272513,world,-0.834715127945,0.753931999207,0.704998195171,0.0379059873521,0.0540999993682,0.550672233105,0.832103669643
2021/01/19/22:13:07.657655,472,1611074587,657269439,world,-0.831599056721,0.759267687798,0.705723047256,0.0186366774142,0.0542862452567,0.553636372089,0.830778241158
2021/01/19/22:13:07.677691,473,1611074587,677269420,world,-0.828113853931,0.763989329338,0.705736041069,0.0208004079759,0.0552890188992,0.550489962101,0.832749247551
2021/01/19/22:13:07.697642,474,1611074587,697249087,world,-0.824652910233,0.768225908279,0.705988645554,0.02286433056,0.0565582104027,0.546689033508,0.835110545158
2021/01/19/22:13:07.707658,475,1611074587,707261809,world,-0.821474611759,0.772464454174,0.705961048603,0.020864861086,0.0536646880209,0.545024633408,0.836440622807
2021/01/19/22:13:07.727702,476,1611074587,727250383,world,-0.817718565464,0.776917219162,0.70599257946,0.0223011355847,0.0533693060279,0.541154503822,0.838931620121
2021/01/19/22:13:07.747657,477,1611074587,747246161,world,-0.814124464989,0.781934082508,0.706002354622,0.0230426564813,0.0546499937773,0.538326501846,0.840646862984
2021/01/19/22:13:07.757658,478,1611074587,757269105,world,-0.810533821583,0.786459982395,0.706104338169,0.0233379285783,0.0542101971805,0.533414423466,0.843792498112
2021/01/19/22:13:07.777699,479,1611074587,777269142,world,-0.806937634945,0.790904760361,0.706282198429,0.0199705418199,0.0510057732463,0.533200085163,0.844214081764
2021/01/19/22:13:07.797647,480,1611074587,797255587,world,-0.803646683693,0.796243429184,0.706107378006,0.0234680883586,0.0561281815171,0.529411673546,0.846180915833
2021/01/19/22:13:07.807629,481,1611074587,807262587,world,-0.800203084946,0.800956964493,0.706224501133,0.0244909375906,0.051526363939,0.524245083332,0.849654257298
2021/01/19/22:13:07.827641,482,1611074587,827242272,world,-0.796895861626,0.806096255779,0.706022799015,0.0202671866864,0.0518087558448,0.524137854576,0.849814534187
2021/01/19/22:13:07.847630,483,1611074587,847242679,world,-0.792907238007,0.811027407646,0.706162214279,0.022390242666,0.0548167526722,0.520744264126,0.851656854153
2021/01/19/22:13:07.857682,484,1611074587,857265272,world,-0.788810372353,0.815807700157,0.705788850784,0.0208641011268,0.0504761375487,0.518679738045,0.853222310543
2021/01/19/22:13:07.877736,485,1611074587,877266587,world,-0.783982336521,0.821065962315,0.706074714661,0.0213022008538,0.0555544830859,0.516230285168,0.854380548
2021/01/19/22:13:07.897663,486,1611074587,897253846,world,-0.779212594032,0.82595205307,0.705800056458,0.0202970150858,0.057042401284,0.512943983078,0.856284201145
2021/01/19/22:13:07.907629,487,1611074587,907263957,world,-0.774874031544,0.830805242062,0.705713629723,0.0205518081784,0.0521327219903,0.509344696999,0.858736217022
2021/01/19/22:13:07.927651,488,1611074587,927247531,world,-0.770364403725,0.835552334785,0.705634534359,0.0238624755293,0.0588078163564,0.504992127419,0.860787510872
2021/01/19/22:13:07.947668,489,1611074587,947243957,world,-0.766839027405,0.839510381222,0.70559412241,0.0229857973754,0.0515682809055,0.501921415329,0.863068521023
2021/01/19/22:13:07.957676,490,1611074587,957261624,world,-0.761870741844,0.844487011433,0.706243336201,0.0206190552562,0.049257658422,0.507302701473,0.860111892223
